{"version": 0.6, "generator": "Overpass API 0.7.57.2 48842a1b", "osm3s": {"timestamp_osm_base": "2022-05-31T16:13:38Z", "copyright": "The data included in this document is from www.openstreetmap.org. The data is made available under ODbL."}, "elements": [{"type": "node", "id": 3849701572, "lat": 30.308949, "lon": -97.731349}, {"type": "node", "id": 3849701602, "lat": 30.309012, "lon": -97.731306}, {"type": "node", "id": 3849701603, "lat": 30.309019, "lon": -97.731486}, {"type": "node", "id": 3849701612, "lat": 30.30903, "lon": -97.731479}, {"type": "node", "id": 3849701627, "lat": 30.30907, "lon": -97.731555}, {"type": "node", "id": 3849701651, "lat": 30.309122, "lon": -97.73152}, {"type": "way", "id": 381803265, "nodes": [3849701572, 3849701603, 3849701612, 3849701627, 3849701651, 3849701602, 3849701572], "tags": {"addr:city": "Austin", "addr:housenumber": "4403", "addr:state": "TX", "addr:street": "Avenue B", "amenity": "cafe", "building": "yes", "height": "5.1", "name": "Avenue B Grocery", "shop": "grocery"}}]}